__time,/model_pose/header/stamp,/model_pose/x/effort,/model_pose/x/position,/model_pose/x/velocity,/model_pose/y/effort,/model_pose/y/position,/model_pose/y/velocity,/model_pose/z/effort,/model_pose/z/position,/model_pose/z/velocity,/psm_joint_telemetry/header/stamp,/psm_joint_telemetry/insertion/effort,/psm_joint_telemetry/insertion/position,/psm_joint_telemetry/insertion/velocity,/psm_joint_telemetry/pitch/effort,/psm_joint_telemetry/pitch/position,/psm_joint_telemetry/pitch/velocity,/psm_joint_telemetry/roll/effort,/psm_joint_telemetry/roll/position,/psm_joint_telemetry/roll/velocity,/psm_joint_telemetry/servo1/effort,/psm_joint_telemetry/servo1/position,/psm_joint_telemetry/servo1/velocity,/psm_joint_telemetry/servo2/effort,/psm_joint_telemetry/servo2/position,/psm_joint_telemetry/servo2/velocity,/psm_joint_telemetry/servo3/effort,/psm_joint_telemetry/servo3/position,/psm_joint_telemetry/servo3/velocity,/psm_joint_telemetry/servo4/effort,/psm_joint_telemetry/servo4/position,/psm_joint_telemetry/servo4/velocity
1751971112.636929,,,,,,,,,,,324.992000000,88.349182129,0.000000000,100.000000000,2.409305096,-29.891996384,-150.000000000,7.127406597,-3.422999382,-100.000000000,60.273277283,0.000000000,0.000000000,166.558593750,0.000000000,0.000000000,106.572227478,0.000000000,0.000000000,135.448577881,0.000000000,0.000000000
1751971112.637003,1751971112.636902094,0.000000000,-0.013032405,0.000000000,0.000000000,-0.041717221,0.000000000,0.000000000,0.076798344,0.000000000,,,,,,,,,,,,,,,,,,,,,,
1751971112.638986,1751971112.638911486,0.000000000,-0.013032405,0.000000000,0.000000000,-0.041717221,0.000000000,0.000000000,0.076798344,0.000000000,,,,,,,,,,,,,,,,,,,,,,
1751971112.639801,,,,,,,,,,,324.994000000,88.349182129,0.000000000,100.000000000,2.409305096,-29.891996384,-150.000000000,7.127406597,-3.422999382,-100.000000000,60.278347015,0.000000000,0.000000000,166.565185547,0.000000000,0.000000000,106.558868408,0.000000000,0.000000000,135.472839355,0.000000000,0.000000000
1751971112.641006,1751971112.640918732,0.000000000,-0.013032405,0.000000000,0.000000000,-0.041717221,0.000000000,0.000000000,0.076798344,0.000000000,,,,,,,,,,,,,,,,,,,,,,
1751971112.642642,,,,,,,,,,,324.997000000,88.349182129,0.000000000,100.000000000,2.409305096,-29.891996384,-150.000000000,7.127406597,-3.422999382,-100.000000000,60.278636932,0.000000000,0.000000000,166.567596436,0.000000000,0.000000000,106.566551208,0.000000000,0.000000000,135.489501953,0.000000000,0.000000000
1751971112.642965,1751971112.642899990,0.000000000,-0.013032405,0.000000000,0.000000000,-0.041717221,0.000000000,0.000000000,0.076798344,0.000000000,,,,,,,,,,,,,,,,,,,,,,
1751971112.644998,1751971112.644898176,0.000000000,-0.013032405,0.000000000,0.000000000,-0.041717221,0.000000000,0.000000000,0.076798344,0.000000000,,,,,,,,,,,,,,,,,,,,,,
1751971112.645473,,,,,,,,,,,325.000000000,88.349182129,0.000000000,100.000000000,2.409305096,-29.891996384,-150.000000000,7.127406597,-3.422999382,-100.000000000,60.274547577,0.000000000,0.000000000,166.563720703,0.000000000,0.000000000,106.569587708,0.000000000,0.000000000,135.511444092,0.000000000,0.000000000
1751971112.646979,1751971112.646899462,0.000000000,-0.013052673,0.000000000,0.000000000,-0.041714383,0.000000000,0.000000000,0.076802795,0.000000000,,,,,,,,,,,,,,,,,,,,,,
1751971112.648347,,,,,,,,,,,325.003000000,88.349182129,0.000000000,100.000000000,2.409305096,-29.891996384,-150.000000000,7.127406597,-3.422999382,-100.000000000,60.257144928,0.000000000,0.000000000,166.571441650,0.000000000,0.000000000,106.570327759,0.000000000,0.000000000,135.467239380,0.000000000,0.000000000
1751971112.648975,1751971112.648917198,0.000000000,-0.013052673,0.000000000,0.000000000,-0.041714383,0.000000000,0.000000000,0.076802795,0.000000000,,,,,,,,,,,,,,,,,,,,,,
1751971112.650995,1751971112.650902510,0.000000000,-0.013052673,0.000000000,0.000000000,-0.041714383,0.000000000,0.000000000,0.076802795,0.000000000,,,,,,,,,,,,,,,,,,,,,,
1751971112.651275,,,,,,,,,,,325.006000000,88.349182129,0.000000000,100.000000000,2.409305096,-29.891996384,-150.000000000,7.127406597,-3.422999382,-100.000000000,60.264259338,0.000000000,0.000000000,166.570495605,0.000000000,0.000000000,106.560676575,0.000000000,0.000000000,135.550338745,0.000000000,0.000000000
1751971112.652960,1751971112.652899981,0.000000000,-0.013052673,0.000000000,0.000000000,-0.041714383,0.000000000,0.000000000,0.076802795,0.000000000,,,,,,,,,,,,,,,,,,,,,,
1751971112.654091,,,,,,,,,,,325.009000000,88.369293213,0.000000000,100.000000000,2.411322117,-29.891996384,-150.000000000,7.126997471,-3.422999382,-100.000000000,60.267375946,0.000000000,0.000000000,166.569473267,0.000000000,0.000000000,106.556434631,0.000000000,0.000000000,135.593292236,0.000000000,0.000000000
1751971112.654956,1751971112.654896975,0.000000000,-0.013052673,0.000000000,0.000000000,-0.041714383,0.000000000,0.000000000,0.076802795,0.000000000,,,,,,,,,,,,,,,,,,,,,,
1751971112.656832,,,,,,,,,,,325.011000000,88.369293213,0.000000000,100.000000000,2.411322117,-29.891996384,-150.000000000,7.126997471,-3.422999382,-100.000000000,60.264743805,0.000000000,0.000000000,166.585174561,0.000000000,0.000000000,106.553855896,0.000000000,0.000000000,135.535369873,0.000000000,0.000000000
1751971112.656956,1751971112.656897068,0.000000000,-0.013082160,0.000000000,0.000000000,-0.041721470,0.000000000,0.000000000,0.076787722,0.000000000,,,,,,,,,,,,,,,,,,,,,,
1751971112.658962,1751971112.658895493,0.000000000,-0.013082160,0.000000000,0.000000000,-0.041721470,0.000000000,0.000000000,0.076787722,0.000000000,,,,,,,,,,,,,,,,,,,,,,
1751971112.659731,,,,,,,,,,,325.014000000,88.363899231,0.000000000,100.000000000,2.417132139,-29.891996384,-150.000000000,7.129197121,-3.422999382,-100.000000000,60.257453918,0.000000000,0.000000000,166.569885254,0.000000000,0.000000000,106.565498352,0.000000000,0.000000000,135.582397461,0.000000000,0.000000000
1751971112.660959,1751971112.660897255,0.000000000,-0.013082160,0.000000000,0.000000000,-0.041721470,0.000000000,0.000000000,0.076787722,0.000000000,,,,,,,,,,,,,,,,,,,,,,
1751971112.662490,,,,,,,,,,,325.017000000,88.363899231,0.000000000,100.000000000,2.417132139,-29.891996384,-150.000000000,7.129197121,-3.422999382,-100.000000000,60.274238586,0.000000000,0.000000000,166.577896118,0.000000000,0.000000000,106.557510376,0.000000000,0.000000000,135.537277222,0.000000000,0.000000000
1751971112.662973,1751971112.662859678,0.000000000,-0.013082160,0.000000000,0.000000000,-0.041721470,0.000000000,0.000000000,0.076787722,0.000000000,,,,,,,,,,,,,,,,,,,,,,
1751971112.665049,1751971112.664949656,0.000000000,-0.013082160,0.000000000,0.000000000,-0.041721470,0.000000000,0.000000000,0.076787722,0.000000000,,,,,,,,,,,,,,,,,,,,,,
1751971112.665372,,,,,,,,,,,325.020000000,88.363899231,0.000000000,100.000000000,2.417132139,-29.891996384,-150.000000000,7.129197121,-3.422999382,-100.000000000,60.276008606,0.000000000,0.000000000,166.578399658,0.000000000,0.000000000,106.554061890,0.000000000,0.000000000,135.554443359,0.000000000,0.000000000
1751971112.666993,1751971112.666917324,0.000000000,-0.013069178,0.000000000,0.000000000,-0.041731691,0.000000000,0.000000000,0.076762664,0.000000000,,,,,,,,,,,,,,,,,,,,,,
1751971112.668187,,,,,,,,,,,325.023000000,88.363899231,0.000000000,100.000000000,2.417132139,-29.891996384,-150.000000000,7.129197121,-3.422999382,-100.000000000,60.279537201,0.000000000,0.000000000,166.576568604,0.000000000,0.000000000,106.552101135,0.000000000,0.000000000,135.487442017,0.000000000,0.000000000
1751971112.668963,1751971112.668899059,0.000000000,-0.013069178,0.000000000,0.000000000,-0.041731691,0.000000000,0.000000000,0.076762664,0.000000000,,,,,,,,,,,,,,,,,,,,,,
1751971112.671075,1751971112.670914888,0.000000000,-0.013069178,0.000000000,0.000000000,-0.041731691,0.000000000,0.000000000,0.076762664,0.000000000,,,,,,,,,,,,,,,,,,,,,,
1751971112.671135,,,,,,,,,,,325.026000000,88.363899231,0.000000000,100.000000000,2.417132139,-29.891996384,-150.000000000,7.129197121,-3.422999382,-100.000000000,60.275371552,0.000000000,0.000000000,166.571777344,0.000000000,0.000000000,106.556571960,0.000000000,0.000000000,135.458145142,0.000000000,0.000000000
1751971112.673002,1751971112.672920942,0.000000000,-0.013069178,0.000000000,0.000000000,-0.041731691,0.000000000,0.000000000,0.076762664,0.000000000,,,,,,,,,,,,,,,,,,,,,,
1751971112.673967,,,,,,,,,,,325.029000000,88.345031738,0.000000000,100.000000000,2.415552139,-29.891996384,-150.000000000,7.132630825,-3.422999382,-100.000000000,60.279880524,0.000000000,0.000000000,166.574783325,0.000000000,0.000000000,106.556381226,0.000000000,0.000000000,135.428405762,0.000000000,0.000000000
1751971112.674955,1751971112.674895048,0.000000000,-0.013069178,0.000000000,0.000000000,-0.041731691,0.000000000,0.000000000,0.076762664,0.000000000,,,,,,,,,,,,,,,,,,,,,,
1751971112.676885,,,,,,,,,,,325.031000000,88.345031738,0.000000000,100.000000000,2.415552139,-29.891996384,-150.000000000,7.132630825,-3.422999382,-100.000000000,60.269454956,0.000000000,0.000000000,166.590698242,0.000000000,0.000000000,106.564300537,0.000000000,0.000000000,135.462738037,0.000000000,0.000000000
1751971112.676982,1751971112.676911831,0.000000000,-0.013069178,0.000000000,0.000000000,-0.041731691,0.000000000,0.000000000,0.076762664,0.000000000,,,,,,,,,,,,,,,,,,,,,,
1751971112.679008,1751971112.678922415,0.000000000,-0.013033030,0.000000000,0.000000000,-0.041699427,0.000000000,0.000000000,0.076795423,0.000000000,,,,,,,,,,,,,,,,,,,,,,
1751971112.679651,,,,,,,,,,,325.034000000,88.345031738,0.000000000,100.000000000,2.415552139,-29.891996384,-150.000000000,7.132630825,-3.422999382,-100.000000000,60.277198792,0.000000000,0.000000000,166.588012695,0.000000000,0.000000000,106.556602478,0.000000000,0.000000000,135.547378540,0.000000000,0.000000000
1751971112.681044,1751971112.680950165,0.000000000,-0.013033030,0.000000000,0.000000000,-0.041699427,0.000000000,0.000000000,0.076795423,0.000000000,,,,,,,,,,,,,,,,,,,,,,
1751971112.682547,,,,,,,,,,,325.037000000,88.345031738,0.000000000,100.000000000,2.415552139,-29.891996384,-150.000000000,7.132630825,-3.422999382,-100.000000000,60.278076172,0.000000000,0.000000000,166.578521729,0.000000000,0.000000000,106.556396484,0.000000000,0.000000000,135.511215210,0.000000000,0.000000000
1751971112.682962,1751971112.682893515,0.000000000,-0.013033030,0.000000000,0.000000000,-0.041699427,0.000000000,0.000000000,0.076795423,0.000000000,,,,,,,,,,,,,,,,,,,,,,
1751971112.684991,1751971112.684900522,0.000000000,-0.013033030,0.000000000,0.000000000,-0.041699427,0.000000000,0.000000000,0.076795423,0.000000000,,,,,,,,,,,,,,,,,,,,,,
1751971112.685557,,,,,,,,,,,325.040000000,88.345031738,0.000000000,100.000000000,2.415552139,-29.891996384,-150.000000000,7.132630825,-3.422999382,-100.000000000,60.279464722,0.000000000,0.000000000,166.578948975,0.000000000,0.000000000,106.553047180,0.000000000,0.000000000,135.530990601,0.000000000,0.000000000
1751971112.686913,1751971112.686850071,0.000000000,-0.013033030,0.000000000,0.000000000,-0.041699427,0.000000000,0.000000000,0.076795423,0.000000000,,,,,,,,,,,,,,,,,,,,,,
1751971112.688469,,,,,,,,,,,325.043000000,88.345031738,0.000000000,100.000000000,2.415552139,-29.891996384,-150.000000000,7.132630825,-3.422999382,-100.000000000,60.276901245,0.000000000,0.000000000,166.572387695,0.000000000,0.000000000,106.565887451,0.000000000,0.000000000,135.525436401,0.000000000,0.000000000
1751971112.688987,1751971112.688923597,0.000000000,-0.013033030,0.000000000,0.000000000,-0.041699427,0.000000000,0.000000000,0.076795423,0.000000000,,,,,,,,,,,,,,,,,,,,,,
1751971112.690986,1751971112.690911770,0.000000000,-0.013038179,0.000000000,0.000000000,-0.041710735,0.000000000,0.000000000,0.076787508,0.000000000,,,,,,,,,,,,,,,,,,,,,,
1751971112.691349,,,,,,,,,,,325.046000000,88.345031738,0.000000000,100.000000000,2.415552139,-29.891996384,-150.000000000,7.132630825,-3.422999382,-100.000000000,60.278404236,0.000000000,0.000000000,166.573425293,0.000000000,0.000000000,106.561599731,0.000000000,0.000000000,135.595214844,0.000000000,0.000000000
1751971112.692960,1751971112.692895174,0.000000000,-0.013038179,0.000000000,0.000000000,-0.041710735,0.000000000,0.000000000,0.076787508,0.000000000,,,,,,,,,,,,,,,,,,,,,,
1751971112.694192,,,,,,,,,,,325.049000000,88.345031738,0.000000000,100.000000000,2.415552139,-29.891996384,-150.000000000,7.132630825,-3.422999382,-100.000000000,60.274627686,0.000000000,0.000000000,166.593200684,0.000000000,0.000000000,106.544471741,0.000000000,0.000000000,135.528289795,0.000000000,0.000000000
1751971112.694956,1751971112.694900274,0.000000000,-0.013038179,0.000000000,0.000000000,-0.041710735,0.000000000,0.000000000,0.076787508,0.000000000,,,,,,,,,,,,,,,,,,,,,,
1751971112.696987,1751971112.696894884,0.000000000,-0.013038179,0.000000000,0.000000000,-0.041710735,0.000000000,0.000000000,0.076787508,0.000000000,,,,,,,,,,,,,,,,,,,,,,
1751971112.697025,,,,,,,,,,,325.052000000,88.345031738,0.000000000,100.000000000,2.415552139,-29.891996384,-150.000000000,7.132630825,-3.422999382,-100.000000000,60.264656067,0.000000000,0.000000000,166.575744629,0.000000000,0.000000000,106.558654785,0.000000000,0.000000000,135.535568237,0.000000000,0.000000000
1751971112.698975,1751971112.698909760,0.000000000,-0.013038179,0.000000000,0.000000000,-0.041710735,0.000000000,0.000000000,0.076787508,0.000000000,,,,,,,,,,,,,,,,,,,,,,
1751971112.699922,,,,,,,,,,,325.055000000,88.352142334,0.000000000,100.000000000,2.409165144,-29.891996384,-150.000000000,7.127667904,-3.422999382,-100.000000000,60.285148621,0.000000000,0.000000000,166.567108154,0.000000000,0.000000000,106.546371460,0.000000000,0.000000000,135.497467041,0.000000000,0.000000000
1751971112.700984,1751971112.700917482,0.000000000,-0.013038179,0.000000000,0.000000000,-0.041710735,0.000000000,0.000000000,0.076787508,0.000000000,,,,,,,,,,,,,,,,,,,,,,
1751971112.702798,,,,,,,,,,,325.057000000,88.352142334,0.000000000,100.000000000,2.409165144,-29.891996384,-150.000000000,7.127667904,-3.422999382,-100.000000000,60.287498474,0.000000000,0.000000000,166.572525024,0.000000000,0.000000000,106.538322449,0.000000000,0.000000000,135.486404419,0.000000000,0.000000000
1751971112.703025,1751971112.702939749,0.000000000,-0.013010729,0.000000000,0.000000000,-0.041708921,0.000000000,0.000000000,0.076830589,0.000000000,,,,,,,,,,,,,,,,,,,,,,
1751971112.705015,1751971112.704909086,0.000000000,-0.013010729,0.000000000,0.000000000,-0.041708921,0.000000000,0.000000000,0.076830589,0.000000000,,,,,,,,,,,,,,,,,,,,,,
1751971112.705638,,,,,,,,,,,325.060000000,88.352142334,0.000000000,100.000000000,2.409165144,-29.891996384,-150.000000000,7.127667904,-3.422999382,-100.000000000,60.284645081,0.000000000,0.000000000,166.571716309,0.000000000,0.000000000,106.547050476,0.000000000,0.000000000,135.562911987,0.000000000,0.000000000
1751971112.707011,1751971112.706921816,0.000000000,-0.013010729,0.000000000,0.000000000,-0.041708921,0.000000000,0.000000000,0.076830589,0.000000000,,,,,,,,,,,,,,,,,,,,,,
1751971112.708483,,,,,,,,,,,325.063000000,88.352142334,0.000000000,100.000000000,2.409165144,-29.891996384,-150.000000000,7.127667904,-3.422999382,-100.000000000,60.270851135,0.000000000,0.000000000,166.587341309,0.000000000,0.000000000,106.552192688,0.000000000,0.000000000,135.553894043,0.000000000,0.000000000
1751971112.709021,1751971112.708927393,0.000000000,-0.013010729,0.000000000,0.000000000,-0.041708921,0.000000000,0.000000000,0.076830589,0.000000000,,,,,,,,,,,,,,,,,,,,,,
1751971112.710991,1751971112.710899353,0.000000000,-0.013010729,0.000000000,0.000000000,-0.041708921,0.000000000,0.000000000,0.076830589,0.000000000,,,,,,,,,,,,,,,,,,,,,,
1751971112.711327,,,,,,,,,,,325.066000000,88.352142334,0.000000000,100.000000000,2.409165144,-29.891996384,-150.000000000,7.127667904,-3.422999382,-100.000000000,60.272968292,0.000000000,0.000000000,166.586883545,0.000000000,0.000000000,106.558204651,0.000000000,0.000000000,135.569396973,0.000000000,0.000000000
1751971112.712977,1751971112.712914467,0.000000000,-0.013010729,0.000000000,0.000000000,-0.041708921,0.000000000,0.000000000,0.076830589,0.000000000,,,,,,,,,,,,,,,,,,,,,,
1751971112.714126,,,,,,,,,,,325.069000000,88.352142334,0.000000000,100.000000000,2.409165144,-29.891996384,-150.000000000,7.127667904,-3.422999382,-100.000000000,60.262882233,0.000000000,0.000000000,166.599822998,0.000000000,0.000000000,106.551498413,0.000000000,0.000000000,135.498199463,0.000000000,0.000000000
1751971112.714895,1751971112.714847088,0.000000000,-0.013058680,0.000000000,0.000000000,-0.041708547,0.000000000,0.000000000,0.076753652,0.000000000,,,,,,,,,,,,,,,,,,,,,,
1751971112.716888,,,,,,,,,,,325.071000000,88.352142334,0.000000000,100.000000000,2.409165144,-29.891996384,-150.000000000,7.127667904,-3.422999382,-100.000000000,60.267478943,0.000000000,0.000000000,166.588592529,0.000000000,0.000000000,106.564514160,0.000000000,0.000000000,135.481735229,0.000000000,0.000000000
1751971112.716960,1751971112.716899872,0.000000000,-0.013058680,0.000000000,0.000000000,-0.041708547,0.000000000,0.000000000,0.076753652,0.000000000,,,,,,,,,,,,,,,,,,,,,,
1751971112.718954,1751971112.718894720,0.000000000,-0.013058680,0.000000000,0.000000000,-0.041708547,0.000000000,0.000000000,0.076753652,0.000000000,,,,,,,,,,,,,,,,,,,,,,
1751971112.719783,,,,,,,,,,,325.074000000,88.324714661,0.000000000,100.000000000,2.413926601,-29.891996384,-150.000000000,7.130002499,-3.422999382,-100.000000000,60.258895874,0.000000000,0.000000000,166.602264404,0.000000000,0.000000000,106.553253174,0.000000000,0.000000000,135.543273926,0.000000000,0.000000000
1751971112.720956,1751971112.720898390,0.000000000,-0.013058680,0.000000000,0.000000000,-0.041708547,0.000000000,0.000000000,0.076753652,0.000000000,,,,,,,,,,,,,,,,,,,,,,
1751971112.722546,,,,,,,,,,,325.077000000,88.324714661,0.000000000,100.000000000,2.413926601,-29.891996384,-150.000000000,7.130002499,-3.422999382,-100.000000000,60.279594421,0.000000000,0.000000000,166.577514648,0.000000000,0.000000000,106.556854248,0.000000000,0.000000000,135.460876465,0.000000000,0.000000000
1751971112.722957,1751971112.722900152,0.000000000,-0.013058680,0.000000000,0.000000000,-0.041708547,0.000000000,0.000000000,0.076753652,0.000000000,,,,,,,,,,,,,,,,,,,,,,
1751971112.724990,1751971112.724898815,0.000000000,-0.013058680,0.000000000,0.000000000,-0.041708547,0.000000000,0.000000000,0.076753652,0.000000000,,,,,,,,,,,,,,,,,,,,,,
1751971112.725488,,,,,,,,,,,325.080000000,88.324714661,0.000000000,100.000000000,2.413926601,-29.891996384,-150.000000000,7.130002499,-3.422999382,-100.000000000,60.263843536,0.000000000,0.000000000,166.587249756,0.000000000,0.000000000,106.555046082,0.000000000,0.000000000,135.528060913,0.000000000,0.000000000
1751971112.726968,1751971112.726898670,0.000000000,-0.013061907,0.000000000,0.000000000,-0.041724402,0.000000000,0.000000000,0.076791007,0.000000000,,,,,,,,,,,,,,,,,,,,,,
1751971112.728315,,,,,,,,,,,325.083000000,88.324714661,0.000000000,100.000000000,2.413926601,-29.891996384,-150.000000000,7.130002499,-3.422999382,-100.000000000,60.283737183,0.000000000,0.000000000,166.574005127,0.000000000,0.000000000,106.548095703,0.000000000,0.000000000,135.557556152,0.000000000,0.000000000
1751971112.728952,1751971112.728899479,0.000000000,-0.013061907,0.000000000,0.000000000,-0.041724402,0.000000000,0.000000000,0.076791007,0.000000000,,,,,,,,,,,,,,,,,,,,,,
1751971112.730994,1751971112.730917454,0.000000000,-0.013061907,0.000000000,0.000000000,-0.041724402,0.000000000,0.000000000,0.076791007,0.000000000,,,,,,,,,,,,,,,,,,,,,,
1751971112.731089,,,,,,,,,,,325.086000000,88.324714661,0.000000000,100.000000000,2.413926601,-29.891996384,-150.000000000,7.130002499,-3.422999382,-100.000000000,60.284557343,0.000000000,0.000000000,166.574890137,0.000000000,0.000000000,106.545570374,0.000000000,0.000000000,135.572692871,0.000000000,0.000000000
1751971112.732953,1751971112.732865095,0.000000000,-0.013061907,0.000000000,0.000000000,-0.041724402,0.000000000,0.000000000,0.076791007,0.000000000,,,,,,,,,,,,,,,,,,,,,,
1751971112.734018,,,,,,,,,,,325.089000000,88.365142822,0.000000000,100.000000000,2.413359404,-29.891996384,-150.000000000,7.129362583,-3.422999382,-100.000000000,60.281688690,0.000000000,0.000000000,166.572204590,0.000000000,0.000000000,106.563064575,0.000000000,0.000000000,135.558181763,0.000000000,0.000000000
1751971112.734959,1751971112.734893322,0.000000000,-0.013061907,0.000000000,0.000000000,-0.041724402,0.000000000,0.000000000,0.076791007,0.000000000,,,,,,,,,,,,,,,,,,,,,,
1751971112.736852,,,,,,,,,,,325.091000000,88.365142822,0.000000000,100.000000000,2.413359404,-29.891996384,-150.000000000,7.129362583,-3.422999382,-100.000000000,60.285224915,0.000000000,0.000000000,166.575881958,0.000000000,0.000000000,106.556503296,0.000000000,0.000000000,135.558563232,0.000000000,0.000000000
1751971112.736916,1751971112.736847162,0.000000000,-0.013061907,0.000000000,0.000000000,-0.041724402,0.000000000,0.000000000,0.076791007,0.000000000,,,,,,,,,,,,,,,,,,,,,,
1751971112.738968,1751971112.738910913,0.000000000,-0.013041294,0.000000000,0.000000000,-0.041697737,0.000000000,0.000000000,0.076784915,0.000000000,,,,,,,,,,,,,,,,,,,,,,
1751971112.739739,,,,,,,,,,,325.094000000,88.365142822,0.000000000,100.000000000,2.413359404,-29.891996384,-150.000000000,7.129362583,-3.422999382,-100.000000000,60.287063599,0.000000000,0.000000000,166.577758789,0.000000000,0.000000000,106.556343079,0.000000000,0.000000000,135.501602173,0.000000000,0.000000000
1751971112.740963,1751971112.740878344,0.000000000,-0.013041294,0.000000000,0.000000000,-0.041697737,0.000000000,0.000000000,0.076784915,0.000000000,,,,,,,,,,,,,,,,,,,,,,
1751971112.742786,,,,,,,,,,,325.097000000,88.365142822,0.000000000,100.000000000,2.413359404,-29.891996384,-150.000000000,7.129362583,-3.422999382,-100.000000000,60.271080017,0.000000000,0.000000000,166.592361450,0.000000000,0.000000000,106.549407959,0.000000000,0.000000000,135.484680176,0.000000000,0.000000000
1751971112.743045,1751971112.742964029,0.000000000,-0.013041294,0.000000000,0.000000000,-0.041697737,0.000000000,0.000000000,0.076784915,0.000000000,,,,,,,,,,,,,,,,,,,,,,
1751971112.745022,1751971112.744899273,0.000000000,-0.013041294,0.000000000,0.000000000,-0.041697737,0.000000000,0.000000000,0.076784915,0.000000000,,,,,,,,,,,,,,,,,,,,,,
1751971112.745715,,,,,,,,,,,325.100000000,88.344215393,0.000000000,100.000000000,2.409809828,-29.891996384,-150.000000000,7.125998497,-3.422999382,-100.000000000,60.291965485,0.000000000,0.000000000,166.574584961,0.000000000,0.000000000,106.542236328,0.000000000,0.000000000,135.452362061,0.000000000,0.000000000
1751971112.746963,1751971112.746900558,0.000000000,-0.013041294,0.000000000,0.000000000,-0.041697737,0.000000000,0.000000000,0.076784915,0.000000000,,,,,,,,,,,,,,,,,,,,,,
1751971112.748520,,,,,,,,,,,325.103000000,88.344215393,0.000000000,100.000000000,2.409809828,-29.891996384,-150.000000000,7.125998497,-3.422999382,-100.000000000,60.287578583,0.000000000,0.000000000,166.573059082,0.000000000,0.000000000,106.548828125,0.000000000,0.000000000,135.540588379,0.000000000,0.000000000
1751971112.748960,1751971112.748911142,0.000000000,-0.013059685,0.000000000,0.000000000,-0.041710046,0.000000000,0.000000000,0.076784865,0.000000000,,,,,,,,,,,,,,,,,,,,,,
1751971112.751032,1751971112.750922203,0.000000000,-0.013059685,0.000000000,0.000000000,-0.041710046,0.000000000,0.000000000,0.076784865,0.000000000,,,,,,,,,,,,,,,,,,,,,,
1751971112.751373,,,,,,,,,,,325.106000000,88.344215393,0.000000000,100.000000000,2.409809828,-29.891996384,-150.000000000,7.125998497,-3.422999382,-100.000000000,60.282608032,0.000000000,0.000000000,166.568618774,0.000000000,0.000000000,106.562561035,0.000000000,0.000000000,135.557403564,0.000000000,0.000000000
1751971112.752965,1751971112.752894878,0.000000000,-0.013059685,0.000000000,0.000000000,-0.041710046,0.000000000,0.000000000,0.076784865,0.000000000,,,,,,,,,,,,,,,,,,,,,,
1751971112.754208,,,,,,,,,,,325.109000000,88.344215393,0.000000000,100.000000000,2.409809828,-29.891996384,-150.000000000,7.125998497,-3.422999382,-100.000000000,60.287002563,0.000000000,0.000000000,166.575302124,0.000000000,0.000000000,106.552040100,0.000000000,0.000000000,135.526794434,0.000000000,0.000000000
1751971112.754900,1751971112.754854202,0.000000000,-0.013059685,0.000000000,0.000000000,-0.041710046,0.000000000,0.000000000,0.076784865,0.000000000,,,,,,,,,,,,,,,,,,,,,,
1751971112.756977,1751971112.756898403,0.000000000,-0.013059685,0.000000000,0.000000000,-0.041710046,0.000000000,0.000000000,0.076784865,0.000000000,,,,,,,,,,,,,,,,,,,,,,
1751971112.757076,,,,,,,,,,,325.112000000,88.344215393,0.000000000,100.000000000,2.409809828,-29.891996384,-150.000000000,7.125998497,-3.422999382,-100.000000000,60.287506104,0.000000000,0.000000000,166.576049805,0.000000000,0.000000000,106.549133301,0.000000000,0.000000000,135.544998169,0.000000000,0.000000000
1751971112.758989,1751971112.758911133,0.000000000,-0.013068724,0.000000000,0.000000000,-0.041729251,0.000000000,0.000000000,0.076751689,0.000000000,,,,,,,,,,,,,,,,,,,,,,
1751971112.759862,,,,,,,,,,,325.114000000,88.352691650,0.000000000,100.000000000,2.413145781,-29.891996384,-150.000000000,7.127775669,-3.422999382,-100.000000000,60.279460907,0.000000000,0.000000000,166.568649292,0.000000000,0.000000000,106.554664612,0.000000000,0.000000000,135.543121338,0.000000000,0.000000000
1751971112.760993,1751971112.760892868,0.000000000,-0.013068724,0.000000000,0.000000000,-0.041729251,0.000000000,0.000000000,0.076751689,0.000000000,,,,,,,,,,,,,,,,,,,,,,
1751971112.762557,,,,,,,,,,,325.117000000,88.334274292,0.000000000,100.000000000,2.415808678,-29.891996384,-150.000000000,7.133138657,-3.422999382,-100.000000000,60.283763885,0.000000000,0.000000000,166.573547363,0.000000000,0.000000000,106.551795959,0.000000000,0.000000000,135.520965576,0.000000000,0.000000000
1751971112.762958,1751971112.762894392,0.000000000,-0.013068724,0.000000000,0.000000000,-0.041729251,0.000000000,0.000000000,0.076751689,0.000000000,,,,,,,,,,,,,,,,,,,,,,
1751971112.765028,1751971112.764937639,0.000000000,-0.013068724,0.000000000,0.000000000,-0.041729251,0.000000000,0.000000000,0.076751689,0.000000000,,,,,,,,,,,,,,,,,,,,,,
1751971112.765472,,,,,,,,,,,325.120000000,88.334274292,0.000000000,100.000000000,2.415808678,-29.891996384,-150.000000000,7.133138657,-3.422999382,-100.000000000,60.285984039,0.000000000,0.000000000,166.576080322,0.000000000,0.000000000,106.543090820,0.000000000,0.000000000,135.483947754,0.000000000,0.000000000
1751971112.766972,1751971112.766901255,0.000000000,-0.013068724,0.000000000,0.000000000,-0.041729251,0.000000000,0.000000000,0.076751689,0.000000000,,,,,,,,,,,,,,,,,,,,,,
1751971112.768364,,,,,,,,,,,325.123000000,88.334274292,0.000000000,100.000000000,2.415808678,-29.891996384,-150.000000000,7.133138657,-3.422999382,-100.000000000,60.281318665,0.000000000,0.000000000,166.588043213,0.000000000,0.000000000,106.540557861,0.000000000,0.000000000,135.587432861,0.000000000,0.000000000
1751971112.768948,1751971112.768892765,0.000000000,-0.013077664,0.000000000,0.000000000,-0.041705608,0.000000000,0.000000000,0.076723990,0.000000000,,,,,,,,,,,,,,,,,,,,,,
1751971112.770973,1751971112.770902634,0.000000000,-0.013077664,0.000000000,0.000000000,-0.041705608,0.000000000,0.000000000,0.076723990,0.000000000,,,,,,,,,,,,,,,,,,,,,,
1751971112.771239,,,,,,,,,,,325.126000000,88.334274292,0.000000000,100.000000000,2.415808678,-29.891996384,-150.000000000,7.133138657,-3.422999382,-100.000000000,60.271865845,0.000000000,0.000000000,166.598983765,0.000000000,0.000000000,106.544715881,0.000000000,0.000000000,135.620361328,0.000000000,0.000000000
1751971112.772978,1751971112.772900105,0.000000000,-0.013077664,0.000000000,0.000000000,-0.041705608,0.000000000,0.000000000,0.076723990,0.000000000,,,,,,,,,,,,,,,,,,,,,,
1751971112.774049,,,,,,,,,,,325.129000000,88.300361633,0.000000000,100.000000000,2.418286324,-29.891996384,-150.000000000,7.131902218,-3.422999382,-100.000000000,60.285491943,0.000000000,0.000000000,166.577972412,0.000000000,0.000000000,106.559379578,0.000000000,0.000000000,135.650802612,0.000000000,0.000000000
1751971112.774966,1751971112.774914503,0.000000000,-0.013077664,0.000000000,0.000000000,-0.041705608,0.000000000,0.000000000,0.076723990,0.000000000,,,,,,,,,,,,,,,,,,,,,,
1751971112.776899,,,,,,,,,,,325.131000000,88.300361633,0.000000000,100.000000000,2.418286324,-29.891996384,-150.000000000,7.131902218,-3.422999382,-100.000000000,60.286136627,0.000000000,0.000000000,166.578460693,0.000000000,0.000000000,106.555732727,0.000000000,0.000000000,135.656585693,0.000000000,0.000000000
1751971112.776989,1751971112.776921034,0.000000000,-0.013077664,0.000000000,0.000000000,-0.041705608,0.000000000,0.000000000,0.076723990,0.000000000,,,,,,,,,,,,,,,,,,,,,,
1751971112.778934,1751971112.778865099,0.000000000,-0.013087880,0.000000000,0.000000000,-0.041715955,0.000000000,0.000000000,0.076734107,0.000000000,,,,,,,,,,,,,,,,,,,,,,
1751971112.779798,,,,,,,,,,,325.134000000,88.300361633,0.000000000,100.000000000,2.418286324,-29.891996384,-150.000000000,7.131902218,-3.422999382,-100.000000000,60.287723541,0.000000000,0.000000000,166.579666138,0.000000000,0.000000000,106.554092407,0.000000000,0.000000000,135.624496460,0.000000000,0.000000000
1751971112.780977,1751971112.780897617,0.000000000,-0.013087880,0.000000000,0.000000000,-0.041715955,0.000000000,0.000000000,0.076734107,0.000000000,,,,,,,,,,,,,,,,,,,,,,
1751971112.782573,,,,,,,,,,,325.137000000,88.300361633,0.000000000,100.000000000,2.418286324,-29.891996384,-150.000000000,7.131902218,-3.422999382,-100.000000000,60.294288635,0.000000000,0.000000000,166.563507080,0.000000000,0.000000000,106.561607361,0.000000000,0.000000000,135.577087402,0.000000000,0.000000000
1751971112.782955,1751971112.782889605,0.000000000,-0.013087880,0.000000000,0.000000000,-0.041715955,0.000000000,0.000000000,0.076734107,0.000000000,,,,,,,,,,,,,,,,,,,,,,
1751971112.785012,1751971112.784929514,0.000000000,-0.013087880,0.000000000,0.000000000,-0.041715955,0.000000000,0.000000000,0.076734107,0.000000000,,,,,,,,,,,,,,,,,,,,,,
1751971112.785557,,,,,,,,,,,325.140000000,88.300361633,0.000000000,100.000000000,2.418286324,-29.891996384,-150.000000000,7.131902218,-3.422999382,-100.000000000,60.307189941,0.000000000,0.000000000,166.556457520,0.000000000,0.000000000,106.554824829,0.000000000,0.000000000,135.580749512,0.000000000,0.000000000
1751971112.786985,1751971112.786909580,0.000000000,-0.013087880,0.000000000,0.000000000,-0.041715955,0.000000000,0.000000000,0.076734107,0.000000000,,,,,,,,,,,,,,,,,,,,,,
1751971112.788311,,,,,,,,,,,325.143000000,88.300361633,0.000000000,100.000000000,2.418286324,-29.891996384,-150.000000000,7.131902218,-3.422999382,-100.000000000,60.293800354,0.000000000,0.000000000,166.554382324,0.000000000,0.000000000,106.566856384,0.000000000,0.000000000,135.615478516,0.000000000,0.000000000
1751971112.788963,1751971112.788897038,0.000000000,-0.013087880,0.000000000,0.000000000,-0.041715955,0.000000000,0.000000000,0.076734107,0.000000000,,,,,,,,,,,,,,,,,,,,,,
1751971112.790959,1751971112.790880680,0.000000000,-0.013169548,0.000000000,0.000000000,-0.041690533,0.000000000,0.000000000,0.076575684,0.000000000,,,,,,,,,,,,,,,,,,,,,,
1751971112.791261,,,,,,,,,,,325.146000000,88.300361633,0.000000000,100.000000000,2.418286324,-29.891996384,-150.000000000,7.131902218,-3.422999382,-100.000000000,60.299037933,0.000000000,0.000000000,166.562637329,0.000000000,0.000000000,106.564010620,0.000000000,0.000000000,135.573379517,0.000000000,0.000000000
1751971112.792977,1751971112.792913437,0.000000000,-0.013169548,0.000000000,0.000000000,-0.041690533,0.000000000,0.000000000,0.076575684,0.000000000,,,,,,,,,,,,,,,,,,,,,,
1751971112.794102,,,,,,,,,,,325.149000000,88.178077698,0.000000000,100.000000000,2.439578295,-29.891996384,-150.000000000,7.141362190,-3.422999382,-100.000000000,60.287876129,0.000000000,0.000000000,166.558868408,0.000000000,0.000000000,106.565513611,0.000000000,0.000000000,135.568435669,0.000000000,0.000000000
1751971112.794902,1751971112.794848442,0.000000000,-0.013169548,0.000000000,0.000000000,-0.041690533,0.000000000,0.000000000,0.076575684,0.000000000,,,,,,,,,,,,,,,,,,,,,,
1751971112.796916,,,,,,,,,,,325.151000000,88.178077698,0.000000000,100.000000000,2.439578295,-29.891996384,-150.000000000,7.141362190,-3.422999382,-100.000000000,60.288982391,0.000000000,0.000000000,166.565368652,0.000000000,0.000000000,106.562019348,0.000000000,0.000000000,135.564849854,0.000000000,0.000000000
1751971112.797014,1751971112.796927691,0.000000000,-0.013169548,0.000000000,0.000000000,-0.041690533,0.000000000,0.000000000,0.076575684,0.000000000,,,,,,,,,,,,,,,,,,,,,,
1751971112.798963,1751971112.798898935,0.000000000,-0.013169548,0.000000000,0.000000000,-0.041690533,0.000000000,0.000000000,0.076575684,0.000000000,,,,,,,,,,,,,,,,,,,,,,
1751971112.799849,,,,,,,,,,,325.154000000,88.178077698,0.000000000,100.000000000,2.439578295,-29.891996384,-150.000000000,7.141362190,-3.422999382,-100.000000000,60.284595490,0.000000000,0.000000000,166.565979004,0.000000000,0.000000000,106.563201904,0.000000000,0.000000000,135.576904297,0.000000000,0.000000000
1751971112.800960,1751971112.800895929,0.000000000,-0.013340432,0.000000000,0.000000000,-0.041668402,0.000000000,0.000000000,0.076292209,0.000000000,,,,,,,,,,,,,,,,,,,,,,
1751971112.802745,,,,,,,,,,,325.157000000,87.947280884,0.000000000,100.000000000,2.479611158,-29.891996384,-150.000000000,7.160494328,-3.422999382,-100.000000000,60.281021118,0.000000000,0.000000000,166.575836182,0.000000000,0.000000000,106.561836243,0.000000000,0.000000000,135.508911133,0.000000000,0.000000000
1751971112.802961,1751971112.802899599,0.000000000,-0.013340432,0.000000000,0.000000000,-0.041668402,0.000000000,0.000000000,0.076292209,0.000000000,,,,,,,,,,,,,,,,,,,,,,
1751971112.805029,1751971112.804938078,0.000000000,-0.013340432,0.000000000,0.000000000,-0.041668402,0.000000000,0.000000000,0.076292209,0.000000000,,,,,,,,,,,,,,,,,,,,,,
1751971112.805689,,,,,,,,,,,325.160000000,87.947280884,0.000000000,100.000000000,2.479611158,-29.891996384,-150.000000000,7.160494328,-3.422999382,-100.000000000,60.276702881,0.000000000,0.000000000,166.571136475,0.000000000,0.000000000,106.574264526,0.000000000,0.000000000,135.528900146,0.000000000,0.000000000
1751971112.806967,1751971112.806895971,0.000000000,-0.013340432,0.000000000,0.000000000,-0.041668402,0.000000000,0.000000000,0.076292209,0.000000000,,,,,,,,,,,,,,,,,,,,,,
1751971112.808550,,,,,,,,,,,325.163000000,87.947280884,0.000000000,100.000000000,2.479611158,-29.891996384,-150.000000000,7.160494328,-3.422999382,-100.000000000,60.286334991,0.000000000,0.000000000,166.578948975,0.000000000,0.000000000,106.564392090,0.000000000,0.000000000,135.495971680,0.000000000,0.000000000
1751971112.808959,1751971112.808899879,0.000000000,-0.013340432,0.000000000,0.000000000,-0.041668402,0.000000000,0.000000000,0.076292209,0.000000000,,,,,,,,,,,,,,,,,,,,,,
1751971112.810998,1751971112.810896873,0.000000000,-0.013335759,0.000000000,0.000000000,-0.041712625,0.000000000,0.000000000,0.075973929,0.000000000,,,,,,,,,,,,,,,,,,,,,,
1751971112.811369,,,,,,,,,,,325.166000000,87.947280884,0.000000000,100.000000000,2.479611158,-29.891996384,-150.000000000,7.160494328,-3.422999382,-100.000000000,60.289909363,0.000000000,0.000000000,166.557403564,0.000000000,0.000000000,106.567192078,0.000000000,0.000000000,135.465744019,0.000000000,0.000000000
1751971112.812969,1751971112.812900543,0.000000000,-0.013335759,0.000000000,0.000000000,-0.041712625,0.000000000,0.000000000,0.075973929,0.000000000,,,,,,,,,,,,,,,,,,,,,,
1751971112.814183,,,,,,,,,,,325.169000000,87.947280884,0.000000000,100.000000000,2.479611158,-29.891996384,-150.000000000,7.160494328,-3.422999382,-100.000000000,60.264537811,0.000000000,0.000000000,166.564743042,0.000000000,0.000000000,106.570739746,0.000000000,0.000000000,135.511856079,0.000000000,0.000000000
1751971112.814985,1751971112.814900875,0.000000000,-0.013335759,0.000000000,0.000000000,-0.041712625,0.000000000,0.000000000,0.075973929,0.000000000,,,,,,,,,,,,,,,,,,,,,,
1751971112.816984,1751971112.816915274,0.000000000,-0.013335759,0.000000000,0.000000000,-0.041712625,0.000000000,0.000000000,0.075973929,0.000000000,,,,,,,,,,,,,,,,,,,,,,
1751971112.817027,,,,,,,,,,,325.172000000,87.947280884,0.000000000,100.000000000,2.479611158,-29.891996384,-150.000000000,7.160494328,-3.422999382,-100.000000000,60.261871338,0.000000000,0.000000000,166.561141968,0.000000000,0.000000000,106.573348999,0.000000000,0.000000000,135.531555176,0.000000000,0.000000000
1751971112.818947,1751971112.818892479,0.000000000,-0.013335759,0.000000000,0.000000000,-0.041712625,0.000000000,0.000000000,0.075973929,0.000000000,,,,,,,,,,,,,,,,,,,,,,
1751971112.819829,,,,,,,,,,,325.174000000,87.947280884,0.000000000,100.000000000,2.479611158,-29.891996384,-150.000000000,7.160494328,-3.422999382,-100.000000000,60.289676666,0.000000000,0.000000000,166.557632446,0.000000000,0.000000000,106.555007935,0.000000000,0.000000000,135.492004395,0.000000000,0.000000000
1751971112.821045,1751971112.820910931,0.000000000,-0.013335759,0.000000000,0.000000000,-0.041712625,0.000000000,0.000000000,0.075973929,0.000000000,,,,,,,,,,,,,,,,,,,,,,
1751971112.822688,,,,,,,,,,,325.177000000,87.947280884,0.000000000,100.000000000,2.479611158,-29.891996384,-150.000000000,7.160494328,-3.422999382,-100.000000000,60.289901733,0.000000000,0.000000000,166.560150146,0.000000000,0.000000000,106.560737610,0.000000000,0.000000000,135.513687134,0.000000000,0.000000000
1751971112.822972,1751971112.822911501,0.000000000,-0.013079386,0.000000000,0.000000000,-0.041873771,0.000000000,0.000000000,0.075493306,0.000000000,,,,,,,,,,,,,,,,,,,,,,
1751971112.825119,1751971112.824992180,0.000000000,-0.013079386,0.000000000,0.000000000,-0.041873771,0.000000000,0.000000000,0.075493306,0.000000000,,,,,,,,,,,,,,,,,,,,,,
1751971112.825547,,,,,,,,,,,325.180000000,87.947280884,0.000000000,100.000000000,2.479611158,-29.891996384,-150.000000000,7.160494328,-3.422999382,-100.000000000,60.285594940,0.000000000,0.000000000,166.561431885,0.000000000,0.000000000,106.557151794,0.000000000,0.000000000,135.478637695,0.000000000,0.000000000
1751971112.826960,1751971112.826896906,0.000000000,-0.013079386,0.000000000,0.000000000,-0.041873771,0.000000000,0.000000000,0.075493306,0.000000000,,,,,,,,,,,,,,,,,,,,,,
1751971112.828392,,,,,,,,,,,325.183000000,87.947280884,0.000000000,100.000000000,2.479611158,-29.891996384,-150.000000000,7.160494328,-3.422999382,-100.000000000,60.277030945,0.000000000,0.000000000,166.556976318,0.000000000,0.000000000,106.568252563,0.000000000,0.000000000,135.499374390,0.000000000,0.000000000
1751971112.828896,1751971112.828847170,0.000000000,-0.013079386,0.000000000,0.000000000,-0.041873771,0.000000000,0.000000000,0.075493306,0.000000000,,,,,,,,,,,,,,,,,,,,,,
1751971112.831021,1751971112.830899477,0.000000000,-0.013079386,0.000000000,0.000000000,-0.041873771,0.000000000,0.000000000,0.075493306,0.000000000,,,,,,,,,,,,,,,,,,,,,,
1751971112.831333,,,,,,,,,,,325.186000000,87.947280884,0.000000000,100.000000000,2.479611158,-29.891996384,-150.000000000,7.160494328,-3.422999382,-100.000000000,60.282176971,0.000000000,0.000000000,166.565887451,0.000000000,0.000000000,106.559898376,0.000000000,0.000000000,135.519989014,0.000000000,0.000000000
1751971112.832966,1751971112.832894802,0.000000000,-0.012849243,0.000000000,0.000000000,-0.042011213,0.000000000,0.000000000,0.074851989,0.000000000,,,,,,,,,,,,,,,,,,,,,,
1751971112.834112,,,,,,,,,,,325.189000000,87.947280884,0.000000000,100.000000000,2.479611158,-29.891996384,-150.000000000,7.160494328,-3.422999382,-100.000000000,60.284835815,0.000000000,0.000000000,166.570495605,0.000000000,0.000000000,106.549888611,0.000000000,0.000000000,135.473480225,0.000000000,0.000000000
1751971112.834979,1751971112.834915400,0.000000000,-0.012849243,0.000000000,0.000000000,-0.042011213,0.000000000,0.000000000,0.074851989,0.000000000,,,,,,,,,,,,,,,,,,,,,,
1751971112.836956,1751971112.836892843,0.000000000,-0.012849243,0.000000000,0.000000000,-0.042011213,0.000000000,0.000000000,0.074851989,0.000000000,,,,,,,,,,,,,,,,,,,,,,
1751971112.837036,,,,,,,,,,,325.192000000,87.947280884,0.000000000,100.000000000,2.479611158,-29.891996384,-150.000000000,7.160494328,-3.422999382,-100.000000000,60.276199341,0.000000000,0.000000000,166.585845947,0.000000000,0.000000000,106.540618896,0.000000000,0.000000000,135.456726074,0.000000000,0.000000000
1751971112.838954,1751971112.838892460,0.000000000,-0.012849243,0.000000000,0.000000000,-0.042011213,0.000000000,0.000000000,0.074851989,0.000000000,,,,,,,,,,,,,,,,,,,,,,
1751971112.839782,,,,,,,,,,,325.194000000,87.947280884,0.000000000,100.000000000,2.479611158,-29.891996384,-150.000000000,7.160494328,-3.422999382,-100.000000000,60.277675629,0.000000000,0.000000000,166.580902100,0.000000000,0.000000000,106.562606812,0.000000000,0.000000000,135.492004395,0.000000000,0.000000000
1751971112.840963,1751971112.840896606,0.000000000,-0.012849243,0.000000000,0.000000000,-0.042011213,0.000000000,0.000000000,0.074851989,0.000000000,,,,,,,,,,,,,,,,,,,,,,
1751971112.842670,,,,,,,,,,,325.197000000,87.947280884,0.000000000,100.000000000,2.479611158,-29.891996384,-150.000000000,7.160494328,-3.422999382,-100.000000000,60.276142120,0.000000000,0.000000000,166.576019287,0.000000000,0.000000000,106.568176270,0.000000000,0.000000000,135.457687378,0.000000000,0.000000000
1751971112.842957,1751971112.842894554,0.000000000,-0.012849243,0.000000000,0.000000000,-0.042011213,0.000000000,0.000000000,0.074851989,0.000000000,,,,,,,,,,,,,,,,,,,,,,
1751971112.844967,1751971112.844891310,0.000000000,-0.012647195,0.000000000,0.000000000,-0.042235303,0.000000000,0.000000000,0.073871095,0.000000000,,,,,,,,,,,,,,,,,,,,,,
1751971112.845542,,,,,,,,,,,325.200000000,86.792083740,0.000000000,100.000000000,2.435142756,-29.891996384,-150.000000000,7.325907230,-3.422999382,-100.000000000,60.277629852,0.000000000,0.000000000,166.574432373,0.000000000,0.000000000,106.558006287,0.000000000,0.000000000,135.506576538,0.000000000,0.000000000
1751971112.846949,1751971112.846891403,0.000000000,-0.012647195,0.000000000,0.000000000,-0.042235303,0.000000000,0.000000000,0.073871095,0.000000000,,,,,,,,,,,,,,,,,,,,,,
1751971112.848370,,,,,,,,,,,325.203000000,86.792083740,0.000000000,100.000000000,2.435142756,-29.891996384,-150.000000000,7.325907230,-3.422999382,-100.000000000,60.266845703,0.000000000,0.000000000,166.562057495,0.000000000,0.000000000,106.575759888,0.000000000,0.000000000,135.463684082,0.000000000,0.000000000
1751971112.848958,1751971112.848895788,0.000000000,-0.012647195,0.000000000,0.000000000,-0.042235303,0.000000000,0.000000000,0.073871095,0.000000000,,,,,,,,,,,,,,,,,,,,,,
1751971112.850975,1751971112.850889206,0.000000000,-0.012647195,0.000000000,0.000000000,-0.042235303,0.000000000,0.000000000,0.073871095,0.000000000,,,,,,,,,,,,,,,,,,,,,,
1751971112.851354,,,,,,,,,,,325.206000000,86.792083740,0.000000000,100.000000000,2.435142756,-29.891996384,-150.000000000,7.325907230,-3.422999382,-100.000000000,60.257850647,0.000000000,0.000000000,166.578964233,0.000000000,0.000000000,106.562988281,0.000000000,0.000000000,135.422576904,0.000000000,0.000000000
1751971112.852941,1751971112.852890730,0.000000000,-0.012647195,0.000000000,0.000000000,-0.042235303,0.000000000,0.000000000,0.073871095,0.000000000,,,,,,,,,,,,,,,,,,,,,,
1751971112.854173,,,,,,,,,,,325.209000000,86.792083740,0.000000000,100.000000000,2.435142756,-29.891996384,-150.000000000,7.325907230,-3.422999382,-100.000000000,60.275646210,0.000000000,0.000000000,166.581024170,0.000000000,0.000000000,106.555847168,0.000000000,0.000000000,135.467803955,0.000000000,0.000000000
1751971112.854949,1751971112.854891300,0.000000000,-0.012647195,0.000000000,0.000000000,-0.042235303,0.000000000,0.000000000,0.073871095,0.000000000,,,,,,,,,,,,,,,,,,,,,,
1751971112.856957,1751971112.856890440,0.000000000,-0.012249257,0.000000000,0.000000000,-0.042439935,0.000000000,0.000000000,0.072826802,0.000000000,,,,,,,,,,,,,,,,,,,,,,
1751971112.857029,,,,,,,,,,,325.212000000,86.792083740,0.000000000,100.000000000,2.435142756,-29.891996384,-150.000000000,7.325907230,-3.422999382,-100.000000000,60.277282715,0.000000000,0.000000000,166.581207275,0.000000000,0.000000000,106.552566528,0.000000000,0.000000000,135.440490723,0.000000000,0.000000000
1751971112.858958,1751971112.858899593,0.000000000,-0.012249257,0.000000000,0.000000000,-0.042439935,0.000000000,0.000000000,0.072826802,0.000000000,,,,,,,,,,,,,,,,,,,,,,
1751971112.859940,,,,,,,,,,,325.215000000,85.175910950,0.000000000,100.000000000,2.386904478,-29.891996384,-150.000000000,7.557890415,-3.422999382,-100.000000000,60.285713196,0.000000000,0.000000000,166.558685303,0.000000000,0.000000000,106.564407349,0.000000000,0.000000000,135.425292969,0.000000000,0.000000000
1751971112.860995,1751971112.860911846,0.000000000,-0.012249257,0.000000000,0.000000000,-0.042439935,0.000000000,0.000000000,0.072826802,0.000000000,,,,,,,,,,,,,,,,,,,,,,
1751971112.862796,,,,,,,,,,,325.217000000,85.175910950,0.000000000,100.000000000,2.386904478,-29.891996384,-150.000000000,7.557890415,-3.422999382,-100.000000000,60.287403107,0.000000000,0.000000000,166.565246582,0.000000000,0.000000000,106.568450928,0.000000000,0.000000000,135.409057617,0.000000000,0.000000000
1751971112.862970,1751971112.862911463,0.000000000,-0.012249257,0.000000000,0.000000000,-0.042439935,0.000000000,0.000000000,0.072826802,0.000000000,,,,,,,,,,,,,,,,,,,,,,
1751971112.864977,1751971112.864919662,0.000000000,-0.012249257,0.000000000,0.000000000,-0.042439935,0.000000000,0.000000000,0.072826802,0.000000000,,,,,,,,,,,,,,,,,,,,,,
1751971112.865738,,,,,,,,,,,325.220000000,85.175910950,0.000000000,100.000000000,2.386904478,-29.891996384,-150.000000000,7.557890415,-3.422999382,-100.000000000,60.285034180,0.000000000,0.000000000,166.567367554,0.000000000,0.000000000,106.564704895,0.000000000,0.000000000,135.335327148,0.000000000,0.000000000
1751971112.866986,1751971112.866919518,0.000000000,-0.012061805,0.000000000,0.000000000,-0.042712870,0.000000000,0.000000000,0.071790533,0.000000000,,,,,,,,,,,,,,,,,,,,,,
1751971112.868529,,,,,,,,,,,325.223000000,85.175910950,0.000000000,100.000000000,2.386904478,-29.891996384,-150.000000000,7.557890415,-3.422999382,-100.000000000,60.271045685,0.000000000,0.000000000,166.575836182,0.000000000,0.000000000,106.561904907,0.000000000,0.000000000,135.502899170,0.000000000,0.000000000
1751971112.869016,1751971112.868947506,0.000000000,-0.012061805,0.000000000,0.000000000,-0.042712870,0.000000000,0.000000000,0.071790533,0.000000000,,,,,,,,,,,,,,,,,,,,,,
1751971112.871016,1751971112.870927572,0.000000000,-0.012061805,0.000000000,0.000000000,-0.042712870,0.000000000,0.000000000,0.071790533,0.000000000,,,,,,,,,,,,,,,,,,,,,,
1751971112.871480,,,,,,,,,,,325.226000000,85.175910950,0.000000000,100.000000000,2.386904478,-29.891996384,-150.000000000,7.557890415,-3.422999382,-100.000000000,60.288368225,0.000000000,0.000000000,166.561309814,0.000000000,0.000000000,106.566947937,0.000000000,0.000000000,135.523498535,0.000000000,0.000000000
1751971112.873003,1751971112.872922421,0.000000000,-0.012061805,0.000000000,0.000000000,-0.042712870,0.000000000,0.000000000,0.071790533,0.000000000,,,,,,,,,,,,,,,,,,,,,,
1751971112.874433,,,,,,,,,,,325.229000000,85.175910950,0.000000000,100.000000000,2.386904478,-29.891996384,-150.000000000,7.557890415,-3.422999382,-100.000000000,60.296104431,0.000000000,0.000000000,166.557495117,0.000000000,0.000000000,106.560646057,0.000000000,0.000000000,135.492843628,0.000000000,0.000000000
1751971112.874994,1751971112.874914169,0.000000000,-0.012061805,0.000000000,0.000000000,-0.042712870,0.000000000,0.000000000,0.071790533,0.000000000,,,,,,,,,,,,,,,,,,,,,,
1751971112.876965,1751971112.876896143,0.000000000,-0.012061805,0.000000000,0.000000000,-0.042712870,0.000000000,0.000000000,0.071790533,0.000000000,,,,,,,,,,,,,,,,,,,,,,
1751971112.877362,,,,,,,,,,,325.232000000,85.175910950,0.000000000,100.000000000,2.386904478,-29.891996384,-150.000000000,7.557890415,-3.422999382,-100.000000000,60.280471802,0.000000000,0.000000000,166.575256348,0.000000000,0.000000000,106.556877136,0.000000000,0.000000000,135.514465332,0.000000000,0.000000000
1751971112.878966,1751971112.878902674,0.000000000,-0.011814498,0.000000000,0.000000000,-0.043013546,0.000000000,0.000000000,0.070641902,0.000000000,,,,,,,,,,,,,,,,,,,,,,
1751971112.880199,,,,,,,,,,,325.235000000,85.175910950,0.000000000,100.000000000,2.386904478,-29.891996384,-150.000000000,7.557890415,-3.422999382,-100.000000000,60.291053772,0.000000000,0.000000000,166.560119629,0.000000000,0.000000000,106.569595337,0.000000000,0.000000000,135.469436646,0.000000000,0.000000000
1751971112.880976,1751971112.880909204,0.000000000,-0.011814498,0.000000000,0.000000000,-0.043013546,0.000000000,0.000000000,0.070641902,0.000000000,,,,,,,,,,,,,,,,,,,,,,
1751971112.882966,1751971112.882897854,0.000000000,-0.011814498,0.000000000,0.000000000,-0.043013546,0.000000000,0.000000000,0.070641902,0.000000000,,,,,,,,,,,,,,,,,,,,,,
1751971112.883039,,,,,,,,,,,325.238000000,85.175910950,0.000000000,100.000000000,2.386904478,-29.891996384,-150.000000000,7.557890415,-3.422999382,-100.000000000,60.291305542,0.000000000,0.000000000,166.566284180,0.000000000,0.000000000,106.565895081,0.000000000,0.000000000,135.482894897,0.000000000,0.000000000
1751971112.884959,1751971112.884896517,0.000000000,-0.011814498,0.000000000,0.000000000,-0.043013546,0.000000000,0.000000000,0.070641902,0.000000000,,,,,,,,,,,,,,,,,,,,,,
1751971112.885796,,,,,,,,,,,325.240000000,83.546546936,0.000000000,100.000000000,2.373638630,-29.891996384,-150.000000000,7.834263325,-3.422999382,-100.000000000,60.277294159,0.000000000,0.000000000,166.557769775,0.000000000,0.000000000,106.570541382,0.000000000,0.000000000,135.560607910,0.000000000,0.000000000
1751971112.886957,1751971112.886898279,0.000000000,-0.011814498,0.000000000,0.000000000,-0.043013546,0.000000000,0.000000000,0.070641902,0.000000000,,,,,,,,,,,,,,,,,,,,,,
1751971112.888734,,,,,,,,,,,325.243000000,83.546546936,0.000000000,100.000000000,2.373638630,-29.891996384,-150.000000000,7.834263325,-3.422999382,-100.000000000,60.272006989,0.000000000,0.000000000,166.555328369,0.000000000,0.000000000,106.587265015,0.000000000,0.000000000,135.461425781,0.000000000,0.000000000
1751971112.889003,1751971112.888900518,0.000000000,-0.011538710,0.000000000,0.000000000,-0.043302251,0.000000000,0.000000000,0.069511054,0.000000000,,,,,,,,,,,,,,,,,,,,,,
1751971112.890971,1751971112.890919447,0.000000000,-0.011538710,0.000000000,0.000000000,-0.043302251,0.000000000,0.000000000,0.069511054,0.000000000,,,,,,,,,,,,,,,,,,,,,,
1751971112.891493,,,,,,,,,,,325.246000000,82.704376221,0.000000000,100.000000000,2.356263399,-29.891996384,-150.000000000,7.980260849,-3.422999382,-100.000000000,60.274925232,0.000000000,0.000000000,166.560852051,0.000000000,0.000000000,106.570526123,0.000000000,0.000000000,135.509033203,0.000000000,0.000000000
1751971112.892941,1751971112.892889738,0.000000000,-0.011538710,0.000000000,0.000000000,-0.043302251,0.000000000,0.000000000,0.069511054,0.000000000,,,,,,,,,,,,,,,,,,,,,,
1751971112.894385,,,,,,,,,,,325.249000000,82.704376221,0.000000000,100.000000000,2.356263399,-29.891996384,-150.000000000,7.980260849,-3.422999382,-100.000000000,60.268589020,0.000000000,0.000000000,166.573303223,0.000000000,0.000000000,106.576759338,0.000000000,0.000000000,135.561889648,0.000000000,0.000000000
1751971112.894898,1751971112.894851446,0.000000000,-0.011538710,0.000000000,0.000000000,-0.043302251,0.000000000,0.000000000,0.069511054,0.000000000,,,,,,,,,,,,,,,,,,,,,,
1751971112.896970,1751971112.896897078,0.000000000,-0.011538710,0.000000000,0.000000000,-0.043302251,0.000000000,0.000000000,0.069511054,0.000000000,,,,,,,,,,,,,,,,,,,,,,
1751971112.897304,,,,,,,,,,,325.252000000,82.704376221,0.000000000,100.000000000,2.356263399,-29.891996384,-150.000000000,7.980260849,-3.422999382,-100.000000000,60.270927429,0.000000000,0.000000000,166.574249268,0.000000000,0.000000000,106.571372986,0.000000000,0.000000000,135.576583862,0.000000000,0.000000000
1751971112.898946,1751971112.898892403,0.000000000,-0.011499058,0.000000000,0.000000000,-0.043517523,0.000000000,0.000000000,0.068459676,0.000000000,,,,,,,,,,,,,,,,,,,,,,
1751971112.900226,,,,,,,,,,,325.255000000,82.704376221,0.000000000,100.000000000,2.356263399,-29.891996384,-150.000000000,7.980260849,-3.422999382,-100.000000000,60.266952515,0.000000000,0.000000000,166.564453125,0.000000000,0.000000000,106.572845459,0.000000000,0.000000000,135.532806396,0.000000000,0.000000000
1751971112.901131,1751971112.900950670,0.000000000,-0.011499058,0.000000000,0.000000000,-0.043517523,0.000000000,0.000000000,0.068459676,0.000000000,,,,,,,,,,,,,,,,,,,,,,
1751971112.902981,1751971112.902873039,0.000000000,-0.011499058,0.000000000,0.000000000,-0.043517523,0.000000000,0.000000000,0.068459676,0.000000000,,,,,,,,,,,,,,,,,,,,,,
1751971112.903069,,,,,,,,,,,325.258000000,82.704376221,0.000000000,100.000000000,2.356263399,-29.891996384,-150.000000000,7.980260849,-3.422999382,-100.000000000,60.269447327,0.000000000,0.000000000,166.566314697,0.000000000,0.000000000,106.576782227,0.000000000,0.000000000,135.550415039,0.000000000,0.000000000
1751971112.904986,1751971112.904914141,0.000000000,-0.011499058,0.000000000,0.000000000,-0.043517523,0.000000000,0.000000000,0.068459676,0.000000000,,,,,,,,,,,,,,,,,,,,,,
1751971112.905802,,,,,,,,,,,325.260000000,82.704376221,0.000000000,100.000000000,2.356263399,-29.891996384,-150.000000000,7.980260849,-3.422999382,-100.000000000,60.284393311,0.000000000,0.000000000,166.552215576,0.000000000,0.000000000,106.576072693,0.000000000,0.000000000,135.593383789,0.000000000,0.000000000
1751971112.906996,1751971112.906919003,0.000000000,-0.011499058,0.000000000,0.000000000,-0.043517523,0.000000000,0.000000000,0.068459676,0.000000000,,,,,,,,,,,,,,,,,,,,,,
1751971112.908659,,,,,,,,,,,325.263000000,82.704376221,0.000000000,100.000000000,2.356263399,-29.891996384,-150.000000000,7.980260849,-3.422999382,-100.000000000,60.280208588,0.000000000,0.000000000,166.557022095,0.000000000,0.000000000,106.575561523,0.000000000,0.000000000,135.526962280,0.000000000,0.000000000
1751971112.908970,1751971112.908900023,0.000000000,-0.011499058,0.000000000,0.000000000,-0.043517523,0.000000000,0.000000000,0.068459676,0.000000000,,,,,,,,,,,,,,,,,,,,,,
1751971112.910970,1751971112.910894871,0.000000000,-0.011514278,0.000000000,0.000000000,-0.043888508,0.000000000,0.000000000,0.067164406,0.000000000,,,,,,,,,,,,,,,,,,,,,,
1751971112.911502,,,,,,,,,,,325.266000000,81.931251526,0.000000000,100.000000000,2.383717775,-29.891996384,-150.000000000,8.110688210,-3.422999382,-100.000000000,60.284255981,0.000000000,0.000000000,166.565917969,0.000000000,0.000000000,106.563980103,0.000000000,0.000000000,135.589508057,0.000000000,0.000000000
1751971112.912979,1751971112.912893534,0.000000000,-0.011514278,0.000000000,0.000000000,-0.043888508,0.000000000,0.000000000,0.067164406,0.000000000,,,,,,,,,,,,,,,,,,,,,,
1751971112.914266,,,,,,,,,,,325.269000000,81.931251526,0.000000000,100.000000000,2.383717775,-29.891996384,-150.000000000,8.110688210,-3.422999382,-100.000000000,60.280937195,0.000000000,0.000000000,166.565093994,0.000000000,0.000000000,106.576416016,0.000000000,0.000000000,135.580200195,0.000000000,0.000000000
1751971112.914972,1751971112.914897919,0.000000000,-0.011514278,0.000000000,0.000000000,-0.043888508,0.000000000,0.000000000,0.067164406,0.000000000,,,,,,,,,,,,,,,,,,,,,,
1751971112.916955,1751971112.916885376,0.000000000,-0.011514278,0.000000000,0.000000000,-0.043888508,0.000000000,0.000000000,0.067164406,0.000000000,,,,,,,,,,,,,,,,,,,,,,
1751971112.917089,,,,,,,,,,,325.272000000,81.931251526,0.000000000,100.000000000,2.383717775,-29.891996384,-150.000000000,8.110688210,-3.422999382,-100.000000000,60.279853821,0.000000000,0.000000000,166.566345215,0.000000000,0.000000000,106.572708130,0.000000000,0.000000000,135.582809448,0.000000000,0.000000000
1751971112.918937,1751971112.918892622,0.000000000,-0.011514278,0.000000000,0.000000000,-0.043888508,0.000000000,0.000000000,0.067164406,0.000000000,,,,,,,,,,,,,,,,,,,,,,
1751971112.919918,,,,,,,,,,,325.275000000,81.931251526,0.000000000,100.000000000,2.383717775,-29.891996384,-150.000000000,8.110688210,-3.422999382,-100.000000000,60.273937225,0.000000000,0.000000000,166.562744141,0.000000000,0.000000000,106.568725586,0.000000000,0.000000000,135.583770752,0.000000000,0.000000000
1751971112.920953,1751971112.920893669,0.000000000,-0.011514278,0.000000000,0.000000000,-0.043888508,0.000000000,0.000000000,0.067164406,0.000000000,,,,,,,,,,,,,,,,,,,,,,
1751971112.922817,,,,,,,,,,,325.277000000,81.931251526,0.000000000,100.000000000,2.383717775,-29.891996384,-150.000000000,8.110688210,-3.422999382,-100.000000000,60.275749207,0.000000000,0.000000000,166.564758301,0.000000000,0.000000000,106.564140320,0.000000000,0.000000000,135.596282959,0.000000000,0.000000000
1751971112.922953,1751971112.922900200,0.000000000,-0.011554456,0.000000000,0.000000000,-0.044189502,0.000000000,0.000000000,0.065779141,0.000000000,,,,,,,,,,,,,,,,,,,,,,
1751971112.924949,1751971112.924891233,0.000000000,-0.011554456,0.000000000,0.000000000,-0.044189502,0.000000000,0.000000000,0.065779141,0.000000000,,,,,,,,,,,,,,,,,,,,,,
1751971112.925747,,,,,,,,,,,325.280000000,80.081916809,0.000000000,100.000000000,2.490668297,-29.891996384,-150.000000000,8.473162651,-3.422999382,-100.000000000,60.280155182,0.000000000,0.000000000,166.569641113,0.000000000,0.000000000,106.552978516,0.000000000,0.000000000,135.538864136,0.000000000,0.000000000
1751971112.926955,1751971112.926898241,0.000000000,-0.011554456,0.000000000,0.000000000,-0.044189502,0.000000000,0.000000000,0.065779141,0.000000000,,,,,,,,,,,,,,,,,,,,,,
1751971112.928408,,,,,,,,,,,325.283000000,80.081916809,0.000000000,100.000000000,2.490668297,-29.891996384,-150.000000000,8.473162651,-3.422999382,-100.000000000,60.283355713,0.000000000,0.000000000,166.573242188,0.000000000,0.000000000,106.544845581,0.000000000,0.000000000,135.543273926,0.000000000,0.000000000
1751971112.928948,1751971112.928892136,0.000000000,-0.011554456,0.000000000,0.000000000,-0.044189502,0.000000000,0.000000000,0.065779141,0.000000000,,,,,,,,,,,,,,,,,,,,,,
1751971112.931011,1751971112.930916548,0.000000000,-0.011554456,0.000000000,0.000000000,-0.044189502,0.000000000,0.000000000,0.065779141,0.000000000,,,,,,,,,,,,,,,,,,,,,,
1751971112.931377,,,,,,,,,,,325.286000000,80.081916809,0.000000000,100.000000000,2.490668297,-29.891996384,-150.000000000,8.473162651,-3.422999382,-100.000000000,60.290695190,0.000000000,0.000000000,166.580932617,0.000000000,0.000000000,106.531341553,0.000000000,0.000000000,135.502532959,0.000000000,0.000000000
1751971112.932947,1751971112.932891846,0.000000000,-0.011420878,0.000000000,0.000000000,-0.044406017,0.000000000,0.000000000,0.064797725,0.000000000,,,,,,,,,,,,,,,,,,,,,,
1751971112.934212,,,,,,,,,,,325.289000000,80.081916809,0.000000000,100.000000000,2.490668297,-29.891996384,-150.000000000,8.473162651,-3.422999382,-100.000000000,60.286495209,0.000000000,0.000000000,166.577087402,0.000000000,0.000000000,106.541656494,0.000000000,0.000000000,135.558746338,0.000000000,0.000000000
1751971112.934922,1751971112.934856892,0.000000000,-0.011420878,0.000000000,0.000000000,-0.044406017,0.000000000,0.000000000,0.064797725,0.000000000,,,,,,,,,,,,,,,,,,,,,,
1751971112.936875,,,,,,,,,,,325.291000000,80.081916809,0.000000000,100.000000000,2.490668297,-29.891996384,-150.000000000,8.473162651,-3.422999382,-100.000000000,60.287036896,0.000000000,0.000000000,166.577667236,0.000000000,0.000000000,106.539779663,0.000000000,0.000000000,135.573776245,0.000000000,0.000000000
